{"2152f96f-50c7-4d76-9e18-f7033bd14428":{"status":200,"cities":[{"guid":"213768bd-8bbf-4ee3-98a1-70230b25ae04","isActive":false,"address":"941 Waldane Court, Why, Federated States Of Micronesia, 4936","latitude":0.270905,"longitude":-37.485239,"tags":["dolor","commodo","deserunt","occaecat","mollit","mollit","aliquip"]},{"guid":"56ab3a96-5606-4b15-a0db-13ed8767ef59","isActive":true,"address":"246 Gallatin Place, Twilight, Kansas, 4674","latitude":-0.142011,"longitude":-37.239118,"tags":["commodo","irure","excepteur","id","occaecat","esse","dolore"]},{"guid":"5675f1aa-5c7b-46ae-b8b3-20dd4d124b3b","isActive":false,"address":"516 Beayer Place, Stollings, Federated States Of Micronesia, 3855","latitude":-2.53358,"longitude":-37.179593,"tags":["id","qui","ea","sint","commodo","enim","nulla"]},{"guid":"0a2ab474-3104-4d20-8c70-b8461f901d59","isActive":false,"address":"916 Gotham Avenue, Breinigsville, Utah, 7774","latitude":-3.284186,"longitude":-37.801362,"tags":["aliqua","excepteur","anim","ullamco","occaecat","labore","dolor"]},{"guid":"598499e6-a93c-4c74-9358-b2d63f895544","isActive":true,"address":"189 Haring Street, Wildwood, Minnesota, 9273","latitude":-1.1539,"longitude":-37.672879,"tags":["proident","non","aliqua","ullamco","dolor","do","magna"]},{"guid":"ede4b1b1-29c5-4ab6-8544-127dddb995b1","isActive":true,"address":"184 Henderson Walk, Kylertown, Mississippi, 4821","latitude":-0.795181,"longitude":-38.175704,"tags":["proident","proident","aliquip","consectetur","velit","pariatur","anim"]},{"guid":"6ba22f4f-c57a-444e-b27a-3da54c791415","isActive":true,"address":"961 Cambridge Place, Lavalette, Washington, 8744","latitude":-1.713123,"longitude":-35.995793,"tags":["minim","incididunt","ut","pariatur","id","id","tempor"]},{"guid":"7de60c0a-4a57-46bf-88bf-d0bb2b63a439","isActive":true,"address":"174 Louise Terrace, Moquino, Kentucky, 2864","latitude":0.50707,"longitude":-38.016309,"tags":["quis","cupidatat","reprehenderit","culpa","Lorem","ipsum","amet"]},{"guid":"8f8f22e4-567d-462b-9196-a946d42fea61","isActive":true,"address":"991 Nevins Street, Chase, American Samoa, 6881","latitude":-2.210574,"longitude":-38.464878,"tags":["cupidatat","irure","amet","adipisicing","ipsum","dolore","esse"]},{"guid":"7b44a91b-32e0-4c12-ad5f-a35d41e378b8","isActive":true,"address":"201 Gunther Place, Blanco, Indiana, 9761","latitude":0.388069,"longitude":-36.580049,"tags":["laboris","anim","deserunt","et","deserunt","exercitation","adipisicing"]},{"guid":"fa2d514b-2cbd-42cc-ac0e-2be5147fdfed","isActive":false,"address":"128 Conover Street, Kimmell, Mississippi, 2796","latitude":-0.521126,"longitude":-37.393349,"tags":["eiusmod","occaecat","ad","duis","ad","pariatur","voluptate"]},{"guid":"1575a8a5-a335-4c64-bd2b-e9882c61ab61","isActive":true,"address":"428 Grafton Street, Darlington, Minnesota, 8146","latitude":-3.397051,"longitude":-37.562246,"tags":["tempor","nulla","duis","reprehenderit","laboris","proident","occaecat"]},{"guid":"5164f346-9170-40b6-9f2e-39107336c2c1","isActive":false,"address":"124 Cypress Avenue, Babb, South Dakota, 9862","latitude":-0.340589,"longitude":-37.374496,"tags":["adipisicing","proident","reprehenderit","aute","deserunt","eiusmod","eu"]},{"guid":"e454ee59-159c-483d-a8ef-e8460db2489c","isActive":false,"address":"151 Brighton Avenue, Stagecoach, New Hampshire, 3295","latitude":0.193809,"longitude":-37.172079,"tags":["sunt","deserunt","sit","incididunt","consectetur","incididunt","occaecat"]},{"guid":"92ad989c-98a3-4a35-b062-45395b9baad5","isActive":true,"address":"859 Cyrus Avenue, Devon, Missouri, 1642","latitude":-2.01801,"longitude":-36.338614,"tags":["cupidatat","adipisicing","veniam","ut","eiusmod","qui","commodo"]}]}}